{"ts":1781591173439,"total":949,"cities":[{"city":"Jaipur","lat":26.914,"lng":75.786,"dialect":"rajasthani","viewers":67},{"city":"New Delhi","lat":28.633,"lng":77.22,"dialect":"haryanvi","viewers":61},{"city":"Pune","lat":18.521,"lng":73.85,"dialect":"rajasthani","viewers":56},{"city":"Lucknow","lat":26.837,"lng":80.917,"dialect":"rajasthani","viewers":48},{"city":"Mumbai","lat":19.074,"lng":72.887,"dialect":"rajasthani","viewers":37},{"city":"Ahmedabad","lat":23.028,"lng":72.587,"dialect":"rajasthani","viewers":30},{"city":"Patna","lat":25.594,"lng":85.135,"dialect":"bhojpuri","viewers":30},{"city":"Panipat","lat":29.389,"lng":76.967,"dialect":"haryanvi","viewers":28},{"city":"Dehradun","lat":30.328,"lng":78.033,"dialect":"haryanvi","viewers":23},{"city":"Delhi","lat":28.654,"lng":77.237,"dialect":"haryanvi","viewers":22},{"city":"Kolkata","lat":22.564,"lng":88.369,"dialect":"bhojpuri","viewers":19},{"city":"Nagpur","lat":21.213,"lng":79.076,"dialect":"marathi","viewers":19},{"city":"Bengaluru","lat":12.975,"lng":77.591,"dialect":"bhojpuri","viewers":17},{"city":"Surat","lat":21.198,"lng":72.83,"dialect":"haryanvi","viewers":16},{"city":"Chandigarh","lat":30.734,"lng":76.789,"dialect":"haryanvi","viewers":15},{"city":"Sonīpat","lat":28.993,"lng":77.021,"dialect":"haryanvi","viewers":13},{"city":"Ludhiana","lat":30.915,"lng":75.854,"dialect":"haryanvi","viewers":13},{"city":"Udaipur","lat":24.403,"lng":73.675,"dialect":"rajasthani","viewers":13},{"city":"Hyderabad","lat":17.387,"lng":78.455,"dialect":"rajasthani","viewers":13},{"city":"Vadodara","lat":22.301,"lng":73.204,"dialect":"rajasthani","viewers":13},{"city":"Indore","lat":22.717,"lng":75.834,"dialect":"haryanvi","viewers":12},{"city":"Kanpur","lat":26.463,"lng":80.348,"dialect":"haryanvi","viewers":12},{"city":"Nashik","lat":20.002,"lng":73.794,"dialect":"rajasthani","viewers":12},{"city":"Meerut","lat":28.983,"lng":77.706,"dialect":"haryanvi","viewers":11},{"city":"Rohtak","lat":28.896,"lng":76.591,"dialect":"haryanvi","viewers":10},{"city":"Bhopal","lat":23.251,"lng":77.406,"dialect":"haryanvi","viewers":9},{"city":"Jodhpur","lat":26.269,"lng":73.009,"dialect":"rajasthani","viewers":9},{"city":"Ambāla","lat":30.341,"lng":76.929,"dialect":"haryanvi","viewers":9},{"city":"Kolhāpur","lat":16.458,"lng":74.153,"dialect":"marathi","viewers":9},{"city":"Rajkot","lat":22.29,"lng":70.791,"dialect":"haryanvi","viewers":8},{"city":"Varanasi","lat":25.315,"lng":83.006,"dialect":"bhojpuri","viewers":8},{"city":"Guwahati","lat":26.189,"lng":91.739,"dialect":"haryanvi","viewers":8},{"city":"Agra","lat":27.182,"lng":78.025,"dialect":"haryanvi","viewers":8},{"city":"Ranchi","lat":23.343,"lng":85.31,"dialect":"bhojpuri","viewers":8},{"city":"Hisar","lat":29.15,"lng":75.718,"dialect":"haryanvi","viewers":8},{"city":"Kurukshetra","lat":29.967,"lng":76.836,"dialect":"haryanvi","viewers":8},{"city":"Prayagraj","lat":25.322,"lng":81.966,"dialect":"hindi","viewers":8},{"city":"Yamuna Nagar","lat":30.13,"lng":77.28,"dialect":"hindi","viewers":8},{"city":"Karnāl","lat":29.692,"lng":76.986,"dialect":"haryanvi","viewers":7},{"city":"Ajmer","lat":26.219,"lng":74.744,"dialect":"rajasthani","viewers":7},{"city":"Bhiwāni","lat":28.793,"lng":76.14,"dialect":"haryanvi","viewers":7},{"city":"Gurugram","lat":28.46,"lng":77.028,"dialect":"haryanvi","viewers":6},{"city":"Aurangabad","lat":20.122,"lng":75.357,"dialect":"marathi","viewers":6},{"city":"Gangtok","lat":27.33,"lng":88.61,"dialect":"hindi","viewers":6},{"city":"Raipur","lat":21.285,"lng":81.813,"dialect":"hindi","viewers":6},{"city":"Bhubaneswar","lat":20.271,"lng":85.833,"dialect":"bhojpuri","viewers":6},{"city":"Jabalpur","lat":23.21,"lng":80.016,"dialect":"hindi","viewers":5},{"city":"Akola","lat":20.715,"lng":77.068,"dialect":"marathi","viewers":5},{"city":"Noida","lat":28.576,"lng":77.335,"dialect":"haryanvi","viewers":4},{"city":"Jammu","lat":32.73,"lng":74.86,"dialect":"hindi","viewers":4},{"city":"Shimla","lat":31.1,"lng":77.17,"dialect":"hindi","viewers":4},{"city":"Solapur","lat":17.833,"lng":75.472,"dialect":"marathi","viewers":4},{"city":"Cuttack","lat":20.438,"lng":85.719,"dialect":"hindi","viewers":4},{"city":"Kota","lat":25.184,"lng":75.835,"dialect":"rajasthani","viewers":3},{"city":"Rewāri","lat":28.193,"lng":76.612,"dialect":"haryanvi","viewers":3},{"city":"Morādābād","lat":28.84,"lng":78.77,"dialect":"haryanvi","viewers":3},{"city":"Dhanbad","lat":23.834,"lng":86.441,"dialect":"bhojpuri","viewers":3},{"city":"Faridabad","lat":28.41,"lng":77.31,"dialect":"haryanvi","viewers":3},{"city":"Bokaro","lat":23.723,"lng":86.003,"dialect":"bhojpuri","viewers":3},{"city":"Aligarh","lat":27.936,"lng":78.018,"dialect":"hindi","viewers":2},{"city":"Chennai","lat":13.09,"lng":80.274,"dialect":"rajasthani","viewers":2},{"city":"Jalandhar","lat":31.268,"lng":75.555,"dialect":"haryanvi","viewers":2},{"city":"Siliguri","lat":26.72,"lng":88.43,"dialect":"hindi","viewers":2},{"city":"Ghaziabad","lat":28.668,"lng":77.434,"dialect":"haryanvi","viewers":2},{"city":"Sīkar","lat":27.61,"lng":75.15,"dialect":"rajasthani","viewers":2},{"city":"Haridwar","lat":29.905,"lng":78.031,"dialect":"hindi","viewers":2},{"city":"Asansol","lat":23.68,"lng":86.99,"dialect":"hindi","viewers":2},{"city":"Bijnor","lat":29.372,"lng":78.41,"dialect":"hindi","viewers":2},{"city":"Mathura","lat":27.607,"lng":77.629,"dialect":"hindi","viewers":2},{"city":"Mysuru","lat":12.236,"lng":76.477,"dialect":"hindi","viewers":2},{"city":"Bilāspur","lat":22.407,"lng":82.099,"dialect":"hindi","viewers":2},{"city":"Kaithal","lat":29.802,"lng":76.4,"dialect":"haryanvi","viewers":2},{"city":"Jamshedpur","lat":22.801,"lng":86.187,"dialect":"bhojpuri","viewers":1},{"city":"Hamīrpur","lat":25.808,"lng":79.871,"dialect":"hindi","viewers":1},{"city":"Srinagar","lat":34.08,"lng":74.79,"dialect":"hindi","viewers":1},{"city":"Dimāpur","lat":25.91,"lng":93.74,"dialect":"hindi","viewers":1},{"city":"Panjim","lat":15.49,"lng":73.83,"dialect":"hindi","viewers":1},{"city":"Thane","lat":19.22,"lng":72.97,"dialect":"marathi","viewers":1},{"city":"Muzaffarpur","lat":26.177,"lng":85.313,"dialect":"bhojpuri","viewers":1}],"topShows":[{"title":"Khejdi","viewers":318},{"title":"Naate","viewers":136},{"title":"Saanwari","viewers":90},{"title":"Sakhe Ga Sajani","viewers":28},{"title":"Doojvar 2","viewers":21},{"title":"Pittardosh","viewers":12},{"title":"ILU ILU 1998","viewers":12},{"title":"Punarjanam - Janam ke Phera","viewers":9},{"title":"Saaya","viewers":8},{"title":"Killer Cab","viewers":7}],"source":"amplitude"}